{
  "type": "FeatureCollection",
  "features": [{
    "geometry": {
      "type": "Point",
      "coordinates": [24.015314, 35.513765]
    },
    "type": "Feature",
    "properties": {
      "category": "ΧΑΝΙΑ",
      "hours": "10πμ - 6μμ",
      "description": "Βρισκόμαστε στην οδό Πειραιώς 3, 731 31. Ιδιοκτήτης ΚΩΝΣΤΑΝΤΙΝΟΣ ΧΑΛΙΚΑΚΗΣ",
      "name": "Fresh-Mart Chania",
      "phone": "+30 2821086868",
      "storeid": "01"
    }
  },
    {
      "geometry": {
        "type": "Point",
        "coordinates": [ 23.785304, 37.834320 ]
      },
      "type": "Feature",
      "properties": {
        "category": "ΑΘΗΝΑ",
        "hours": "10πμ - 6μμ",
        "description": "Βρισκόμαστε επι της οδού Καλύμνου 96, Βούλα, 166 73, στην καρδιά της Αθηναϊκής Ριβιέρας.",
        "name": "Fresh-Mart Kalymnou",
        "phone": "+30 2108993024",
        "storeid": "02"
      }
    },
    {
      "geometry": {
        "type": "Point",
        "coordinates": [24.007817, 37.970414]
      },
      "type": "Feature",
      "properties": {
        "category": "ΑΤΤΙΚΗ",
        "hours": "10πμ - 6μμ",
        "description": "Το κατάστημα μας δεν λειτουργεί σαββατοκύριακο - Ιδιοκτήτης ΜΑΡΙΑ ΣΠΑΝΟΥ",
        "name": "Fresh-Mart Artemidos",
        "phone": "+30 2294040011",
        "storeid": "03"
      }
    },
    {
      "geometry": {
        "type": "Point",
        "coordinates": [23.810992, 38.004786]
      },
      "type": "Feature",
      "properties": {
        "category": "ΑΘΗΝΑ",
        "hours": "10πμ - 6μμ",
        "description": "Fresh-Mart Agia Paraskevi - Ιδιοκτήτης ΣΟΛΏΝΑΚΗ ΗΡΩ",
        "name": "Fresh-Mart Agia Paraskevi",
        "phone": "+30 2111822080",
        "storeid": "04"
      }
    },
    {
      "geometry": {
        "type": "Point",
        "coordinates": [23.652221, 37.941597]
      },
      "type": "Feature",
      "properties": {
        "category": "ΑΘΗΝΑ",
        "hours": "10πμ - 6μμ",
        "description": "Βρισκόμαστε απέναντι απο το πανεπιστήμιο Πειραιώς στην γωνία Τσαμαδού και Δεληγιώργη",
        "name": "Fresh-Mart Piraeus",
        "phone": "+30 2160002200",
        "storeid": "05"
      }
    },
    {
      "geometry": {
        "type": "Point",
        "coordinates": [22.944336, 40.633475]
      },
      "type": "Feature",
      "properties": {
        "category": "ΘΕΣΣΑΛΟΝΙΚΗ",
        "hours": "10πμ - 6μμ",
        "description": "Το νέο μας κατάστημα στην Σαλούγκα σας περιμένει απο τις 12/5/2023",
        "name": "Fresh-Mart Thessaloniki - NEW!",
        "phone": "+30 2317510951",
        "storeid": "06"
      }
    },
    {
      "geometry": {
        "type": "Point",
        "coordinates": [20.405749,39.283693]
      },
      "type": "Feature",
      "properties": {
        "category": "ΠΡΕΒΕΖΑ",
        "hours": "10πμ - 6μμ",
        "description": "Στης Πάργας τον ανήφορο. Η ρίζα της αλυσίδας μας - Ιδιοκτήτης ΦΡΙΤΖΕΛΑΣ ΑΝΤΩΝΙΟΣ",
        "name": "Fresh-Mart Pargas",
        "phone": "+30 2684032584",
        "storeid": "07"
      }
    },
    {
      "geometry": {
        "type": "Point",
        "coordinates": [21.733291,38.243437]
      },
      "type": "Feature",
      "properties": {
        "category": "ΠΑΤΡΑ",
        "hours": "8πμ - 9:30μμ",
        "description": "Βρισκόμαστε στην οδό Κανακάρη. Μασκότ μας το σκυλί",
        "name": "Fresh-Mart Patras",
        "phone": "+30 2610334790",
        "storeid": "08"
      }
    },
    {
      "geometry": {
        "type": "Point",
        "coordinates": [22.371630,37.511927]
      },
      "type": "Feature",
      "properties": {
        "category": "ΤΡΙΠΟΛΗ",
        "hours": "8πμ - 9μμ",
        "description": "Fresh-Mart Τρίπολης. Ανοικτά καθημερινά απο τις 8 το πρωί εως τις 9 το βράδυ",
        "name": "Fresh-Mart Tripoli",
        "phone": "+30 2710222026",
        "storeid": "09"
      }
    },
    {
      "geometry": {
        "type": "Point",
        "coordinates": [23.495714,37.963947]
      },
      "type": "Feature",
      "properties": {
        "category": "ΣΑΛΑΜΙΝΑ",
        "hours": "8πμ - 9:30μμ",
        "description": "Πανω στον παραλιακό δρόμο της Ακτής Καραϊσκάκη - Ιδιοκτήτης ΓΙΑΤΡΑΣ ΙΩΑΝΝΗΣ",
        "name": "Fresh-Mart Salamina",
        "phone": "+30 2104658585",
        "storeid": "10"
      }
    },
    {
      "geometry": {
        "type": "Point",
        "coordinates": [22.724816,37.720996]
      },
      "type": "Feature",
      "properties": {
        "category": "ΕΠΑΡΧΙΑ",
        "hours": "8πμ - 9:30μμ",
        "description": "Βρισκόμαστε στον επαρχιακό δρόμο ΕΟ Κορίνθου-Άργους - Ιδιοκτήτης ΤΣΙΩΤΑΚΗ ΕΛΕΝΗ",
        "name": "Fresh-Mart Fixtia",
        "phone": "+30 2751076963",
        "storeid": "11"
      }
    },
    {
      "geometry": {
        "type": "Point",
        "coordinates": [25.126843,35.337657]
      },
      "type": "Feature",
      "properties": {
        "category": "ΗΡΑΚΛΕΙΟ",
        "hours": "8πμ - 9:30μμ",
        "description": "Βρισκόμαστε επι της οδού Δεδάλου, στο ιστορικό κέντρο. Ελάτε και κερνάμε τσικουδιά. Ιδιοκτήτης ΝΙΚΟΛΑΟΣ ΠΑΠΑΔΑΚΗΣ",
        "name": "Fresh-Mart Heraklion",
        "phone": "+30 2810240619",
        "storeid": "12"
      }
    },
    {
      "geometry": {
        "type": "Point",
        "coordinates": [22.957046,39.362204]
      },
      "type": "Feature",
      "properties": {
        "category": "ΒΟΛΟΣ",
        "hours": "8πμ - 9:30μμ",
        "description": "Με τον κωδικό 'ΜΗΧΜΗΧ' έχετε 10% έκπτωση σε όλα τα προϊόντα της κάβας. Η προσφορά ισχύει μέχρι τέλος Μαϊου",
        "name": "Fresh-Mart Volos",
        "phone": "+30 2421049676",
        "storeid": "13"
      }
    }
  ]
}